[
	{
		"id": 1,
		"name": "The Voodoo Rooms",
		"description": "The Voodoo Rooms Description",
		"address01": "The Voodoo Rooms Address 01",
		"address02": "The Voodoo Rooms Address 02",
		"city": "Edinburgh",
		"countryId": 1,
		"image": "",
		"url": "",
		"email": "",
		"phone": "",
		"latitude": 55.95367,
		"longitude": -3.19051,
		"active": true
	},
	
	{
		"id": 2,
		"name": "Sygn",
		"description": "Sygn Description",
		"address01": "Sygn Address 01",
		"address02": "Sygn Address 02",
		"city": "Edinburgh",
		"countryId": 1,
		"image": "",
		"url": "",
		"email": "",
		"phone": "",
		"latitude": 55.950972,
		"longitude": -3.209435,
		"active": true
	},
	
	{
		"id": 3,
		"name": "The Scotsman",
		"description": "The Scotsman Description",
		"address01": "The Scotsman Address 01",
		"address02": "The Scotsman Address 02",
		"city": "Edinburgh",
		"countryId": 1,
		"image": "",
		"url": "",
		"email": "",
		"phone": "",
		"latitude": 55.9532,
		"longitude": -3.1899,
		"active": true
	},
	
	{
		"id": 4,
		"name": "The Standard",
		"description": "The Standard Description",
		"address01": "The Standard Address 01",
		"address02": "The Standard Address 02",
		"city": "Edinburgh",
		"countryId": 1,
		"image": "",
		"url": "",
		"email": "",
		"phone": "",
		"latitude": 55.95629,
		"longitude": -3.20267,
		"active": true
	},
	
	{
		"id": 5,
		"name": "Monteiths",
		"description": "Monteiths Description",
		"address01": "Monteiths Address 01",
		"address02": "Monteiths Address 02",
		"city": "Edinburgh",
		"countryId": 1,
		"image": "",
		"url": "",
		"email": "",
		"phone": "",
		"latitude": 55.95079,
		"longitude": -3.1848,
		"active": true
	},
	
	{
		"id": 6,
		"name": "Dirty Dicks",
		"description": "Dirty Dicks Description",
		"address01": "Dirty Dicks Address 01",
		"address02": "Dirty Dicks Address 02",
		"city": "Edinburgh",
		"countryId": 1,
		"image": "",
		"url": "",
		"email": "",
		"phone": "",
		"latitude": 55.95152,
		"longitude": -3.20508,
		"active": true
	},
	
	{
		"id": 7,
		"name": "Maggie Dicksons",
		"description": "Maggie Dicksons Description",
		"address01": "Maggie Dicksons Address 01",
		"address02": "Maggie Dicksons Address 02",
		"city": "Edinburgh",
		"countryId": 1,
		"image": "",
		"url": "",
		"email": "",
		"phone": "",
		"latitude": 55.94785,
		"longitude": -3.19555,
		"active": true
	},
	
	{
		"id": 8,
		"name": "The Jolly Judge",
		"description": "The Jolly Judge Description",
		"address01": "The Jolly Judge Address 01",
		"address02": "The Jolly Judge Address 02",
		"city": "Edinburgh",
		"countryId": 1,
		"image": "",
		"url": "",
		"email": "",
		"phone": "",
		"latitude": 55.94937,
		"longitude": -3.19404,
		"active": true
	},
	
	{
		"id": 9,
		"name": "Bar Alba",
		"description": "Bar Alba Description",
		"address01": "Bar Alba Address 01",
		"address02": "Bar Alba Address 02",
		"city": "Edinburgh",
		"countryId": 1,
		"image": "",
		"url": "",
		"email": "",
		"phone": "",
		"latitude": 55.94695,
		"longitude": -3.19844,
		"active": true
	},
	
	{
		"id": 10,
		"name": "Bacaro",
		"description": "Bacaro Description",
		"address01": "Bacaro Address 01",
		"address02": "Bacaro Address 02",
		"city": "Edinburgh",
		"countryId": 1,
		"image": "",
		"url": "",
		"email": "",
		"phone": "",
		"latitude": 55.95088,
		"longitude": -3.20791,
		"active": true
	},
	
	{
		"id": 11,
		"name": "Liquid Ship",
		"description": "Liquid Ship Description",
		"address01": "Liquid Ship Address 01",
		"address02": "Liquid Ship Address 02",
		"city": "Glasgow",
		"countryId": 1,
		"image": "",
		"url": "",
		"email": "",
		"phone": "",
		"latitude": 55.87213,
		"longitude": -4.2724,
		"active": true
	},
	
	{
		"id": 12,
		"name": "Uniquitous Chip",
		"description": "Uniquitous Chip Description",
		"address01": "Uniquitous Chip Address 01",
		"address02": "Uniquitous Chip Address 02",
		"city": "Glasgow",
		"countryId": 1,
		"image": "",
		"url": "",
		"email": "",
		"phone": "",
		"latitude": 55.87462,
		"longitude": 55.87229,
		"active": true
	},
	
	{
		"id": 13,
		"name": "Oran Mor",
		"description": "Oran Mor Description",
		"address01": "Oran Mor Address 01",
		"address02": "Oran Mor Address 02",
		"city": "Glasgow",
		"countryId": 1,
		"image": "",
		"url": "",
		"email": "",
		"phone": "",
		"latitude": 55.87737,
		"longitude": -4.28912,
		"active": true
	},
	
	{
		"id": 14,
		"name": "The Two Figs",
		"description": "The Two Figs Description",
		"address01": "The Two Figs Address 01",
		"address02": "The Two Figs Address 02",
		"city": "Glasgow",
		"countryId": 1,
		"image": "",
		"url": "",
		"email": "",
		"phone": "",
		"latitude": 55.87091,
		"longitude": -4.29928,
		"active": true
	},
	
	{
		"id": 15,
		"name": "Citation",
		"description": "Citation Description",
		"address01": "Citation Address 01",
		"address02": "Citation Address 02",
		"city": "Glasgow",
		"countryId": 1,
		"image": "",
		"url": "",
		"email": "",
		"phone": "",
		"latitude": 55.85884,
		"longitude": -4.24836,
		"active": true
	},
	
	{
		"id": 16,
		"name": "The Brunswick Hotel",
		"description": "The Brunswick Hotel Description",
		"address01": "The Brunswick Hotel Address 01",
		"address02": "The Brunswick Hotel Address 02",
		"city": "Glasgow",
		"countryId": 1,
		"image": "",
		"url": "",
		"email": "",
		"phone": "",
		"latitude": 55.85884,
		"longitude": -4.24836,
		"active": true
	},
	
	{
		"id": 17,
		"name": "The Republic Bier Halle West",
		"description": "The Republic Bier Halle West Description",
		"address01": "The Republic Bier Halle West Address 01",
		"address02": "The Republic Bier Halle West Address 02",
		"city": "Glasgow",
		"countryId": 1,
		"image": "",
		"url": "",
		"email": "",
		"phone": "",
		"latitude": 55.87382,
		"longitude": -4.27632,
		"active": true
	},
	
	{
		"id": 18,
		"name": "The Republic Bier Halle",
		"description": "The Republic Bier Halle Description",
		"address01": "The Republic Bier Halle Address 01",
		"address02": "The Republic Bier Halle Address 02",
		"city": "Glasgow",
		"countryId": 1,
		"image": "",
		"url": "",
		"email": "",
		"phone": "",
		"latitude": 55.8602,
		"longitude": -4.25513,
		"active": true
	},
	
	{
		"id": 19,
		"name": "The Arches",
		"description": "The Arches Description",
		"address01": "The Arches Address 01",
		"address02": "The Arches Address 02",
		"city": "Glasgow",
		"countryId": 1,
		"image": "",
		"url": "",
		"email": "",
		"phone": "",
		"latitude": 55.85837,
		"longitude": -4.25833,
		"active": true
	},
	
	{
		"id": 20,
		"name": "The Sub Club",
		"description": "The Sub Club Description",
		"address01": "The Sub Club Address 01",
		"address02": "The Sub Club Address 02",
		"city": "Glasgow",
		"countryId": 1,
		"image": "",
		"url": "",
		"email": "",
		"phone": "",
		"latitude": 55.85797,
		"longitude": -4.25769,
		"active": true
	},
	
	{
		"id": 21,
		"name": "McSorlies",
		"description": "McSorlies Description",
		"address01": "McSorlies Address 01",
		"address02": "McSorlies Address 02",
		"city": "Glasgow",
		"countryId": 1,
		"image": "",
		"url": "",
		"email": "",
		"phone": "",
		"latitude": 55.85721,
		"longitude": -4.25774,
		"active": true
	},
	
	{
		"id": 22,
		"name": "Bamboo",
		"description": "Bamboo Description",
		"address01": "Bamboo Address 01",
		"address02": "Bamboo Address 02",
		"city": "Glasgow",
		"countryId": 1,
		"image": "",
		"url": "",
		"email": "",
		"phone": "",
		"latitude": 55.86447,
		"longitude": -4.26425,
		"active": true
	},
	
	{
		"id": 23,
		"name": "Bunker",
		"description": "Bunker Description",
		"address01": "Bunker Address 01",
		"address02": "Bunker Address 02",
		"city": "Glasgow",
		"countryId": 1,
		"image": "",
		"url": "",
		"email": "",
		"phone": "",
		"latitude": 55.86438,
		"longitude": -4.26257,
		"active": true
	},
	
	{
		"id": 24,
		"name": "Black Sparrow ",
		"description": "Black Sparrow  Description",
		"address01": "Black Sparrow  Address 01",
		"address02": "Black Sparrow  Address 02",
		"city": "Glasgow",
		"countryId": 1,
		"image": "",
		"url": "",
		"email": "",
		"phone": "",
		"latitude": 55.86604,
		"longitude": -4.27219,
		"active": true
	},
	
	{
		"id": 25,
		"name": "Stravagin",
		"description": "We have our fingers firmly on the foodie pulse so our weird and wonderful wine and food dinners fill up quickly with curious customers willing to become gourmet guinea pigs! Recently the lucky lot have dined on wild foods- grey squirrel, rook, hedgerow herbs and sea urchins, and quaffed wines from around the world- including China, England, Tasmania and Lebanon. Watch this space for our up and coming events!",
		"address01": "28 Gibson Street",
		"address02": "Kelvinbridge",
		"city": "Glasgow",
		"postcode": "G12 8NX",
		"countryId": 1,
		"image": "images/locations/24/image.jpg",
		"url": "http://www.stravaigin.co.uk/",
		"email": "",
		"phone": "0141 334 2665",
		"twitter": "StravaiginG12",
		"latitude": 55.87261,
		"longitude": -4.28259,
		"active": true
	}
]